{
"type": "FeatureCollection",
"crs": { "type": "name", "properties": { "name": "urn:ogc:def:crs:OGC:1.3:CRS84" } },
"features": [
{ "type": "Feature", "properties": { "stop_name": "Readville", "stop_lat": 42.238864, "stop_lon": -71.133433 }, "geometry": { "type": "Point", "coordinates": [ -71.133433, 42.238864 ] } },
{ "type": "Feature", "properties": { "stop_name": "Providence", "stop_lat": 41.829293, "stop_lon": -71.413301 }, "geometry": { "type": "Point", "coordinates": [ -71.413301, 41.829293 ] } },
{ "type": "Feature", "properties": { "stop_name": "Pawtucket/Central Falls", "stop_lat": 41.878804, "stop_lon": -71.392048 }, "geometry": { "type": "Point", "coordinates": [ -71.392048, 41.878804 ] } },
{ "type": "Feature", "properties": { "stop_name": "Attleboro", "stop_lat": 41.941732, "stop_lon": -71.284214 }, "geometry": { "type": "Point", "coordinates": [ -71.284214, 41.941732 ] } },
{ "type": "Feature", "properties": { "stop_name": "Mansfield", "stop_lat": 42.032787, "stop_lon": -71.219917 }, "geometry": { "type": "Point", "coordinates": [ -71.219917, 42.032787 ] } },
{ "type": "Feature", "properties": { "stop_name": "Sharon", "stop_lat": 42.124553, "stop_lon": -71.184468 }, "geometry": { "type": "Point", "coordinates": [ -71.184468, 42.124553 ] } },
{ "type": "Feature", "properties": { "stop_name": "Canton Junction", "stop_lat": 42.162024, "stop_lon": -71.153828 }, "geometry": { "type": "Point", "coordinates": [ -71.153828, 42.162024 ] } },
{ "type": "Feature", "properties": { "stop_name": "Route 128", "stop_lat": 42.210308, "stop_lon": -71.147134 }, "geometry": { "type": "Point", "coordinates": [ -71.147134, 42.210308 ] } },
{ "type": "Feature", "properties": { "stop_name": "Hyde Park", "stop_lat": 42.25503, "stop_lon": -71.125526 }, "geometry": { "type": "Point", "coordinates": [ -71.125526, 42.25503 ] } },
{ "type": "Feature", "properties": { "stop_name": "Back Bay", "stop_lat": 42.347283, "stop_lon": -71.075312 }, "geometry": { "type": "Point", "coordinates": [ -71.075312, 42.347283 ] } },
{ "type": "Feature", "properties": { "stop_name": "Ruggles", "stop_lat": 42.336339, "stop_lon": -71.089517 }, "geometry": { "type": "Point", "coordinates": [ -71.089517, 42.336339 ] } },
{ "type": "Feature", "properties": { "stop_name": "South Station", "stop_lat": 42.35141, "stop_lon": -71.055417 }, "geometry": { "type": "Point", "coordinates": [ -71.055417, 42.35141 ] } }
]
}
